{"type":"FeatureCollection","features":[{"type":"Feature","geometry":{"type":"Point","coordinates":[-46.6357892724542,-23.546111296084,-0.0000166799873113632]},"properties":{"name":"ESP1","description":"Equinix SP1\nCentro, São paulo, Rua Doutor Miguel Couto, 58"}},{"type":"Feature","geometry":{"type":"Point","coordinates":[-46.8271946555942,-23.5029459802595,-0.0000166250392794609]},"properties":{"name":"ESP2","description":"Equinix SP2\nAlameda Araguaia, 3.641"}},{"type":"Feature","geometry":{"type":"Point","coordinates":[-46.8631138743847,-23.4659381079872,-0.0000165747478604317]},"properties":{"name":"ESP3","description":"Equinix SP3\nAv. Marcos Penteado De Ulhôa Rodrigues, 249"}},{"type":"Feature","geometry":{"type":"Point","coordinates":[-46.8097525154478,-23.4939023121859,-0.0000166110694408417]},"properties":{"name":"ESP4","description":"Equinix SP4\nTamboré, Barueri, Av. Ceci, 1900"}},{"type":"Feature","geometry":{"type":"Point","coordinates":[-46.6478449606677,-23.5354908961828,-0.0000166678801178932]},"properties":{"name":"UOLG","description":"UOL Diveo\nCampos Elíseos, São Paulo, Alameda Glete, 700"}},{"type":"Feature","geometry":{"type":"Point","coordinates":[-46.8113542648852,-23.4950551670963,-0.0000166129320859909]},"properties":{"name":"UOLT","description":"UOL Tambore\nTamboré, Barueri, Av. Ceci, 1850"}},{"type":"Feature","geometry":{"type":"Point","coordinates":[-46.7206487839377,-23.6508872561702,-0.0000168224796652794]},"properties":{"name":"TIVT","description":"Tivit\nJd. Dom Bosco, R. Bento Branco De Andrade Filho, 621"}},{"type":"Feature","geometry":{"type":"Point","coordinates":[-46.7261239589966,-23.6527204060754,-0.0000168243423104286]},"properties":{"name":"OIPP","description":"Oi Panamerica Park\nSanto Amaro, R. Guido Caloi 1000"}},{"type":"Feature","geometry":{"type":"Point","coordinates":[-46.8486291431997,-23.5978300244453,-0.0000167516991496086]},"properties":{"name":"CTL3","description":"Century Link\nAv. Eid Mansur, 666 - Vila Santo Antonio de Carapicuiba, Cotia"}},{"type":"Feature","geometry":{"type":"Point","coordinates":[-46.6946612336604,-23.6015386070209,-0.0000167544931173325]},"properties":{"name":"PTTN","description":"PTT - Nações Unidas (NIC.BR)\nCidade Monções, Av. Nações Unidas, 11541"}},{"type":"Feature","geometry":{"type":"Point","coordinates":[-46.6734231557874,-23.5853984425742,-0.0000167340040206909]},"properties":{"name":"EDPB","description":"Ed. Lexington Ed. Paes de Barros (Itaim)\nR. Dr. Renato Paes de Barros, ITAIM BIBI"}},{"type":"Feature","geometry":{"type":"Point","coordinates":[-46.6970719672186,-23.6090844632144,-0.0000167666003108025]},"properties":{"name":"WTCM","description":"World Trade Center\nAv. das Nações Unidas, 12555 - Cidade Monções, São Paulo"}},{"type":"Feature","geometry":{"type":"Point","coordinates":[-46.6901403038414,-23.5928050439217,-0.0000167451798915863]},"properties":{"name":"SAMM","description":"SAMM\nAvda. Chedid Jafet 222"}},{"type":"Feature","geometry":{"type":"Point","coordinates":[-46.7021626013337,-23.6237361224903,-0.0000167861580848694]},"properties":{"name":"WTMO","description":"WT Morumbi"}}]}